,City,Cloudiness,Country,Date,Humidity,Lat,Lng,Max Temp,Wind Speed
0,Port-Cartier,75,CA,1581014759,56,50.03,-66.87,265.37,2.6
1,Karratha,100,AU,1581014759,75,-20.74,116.85,302.78,8.91
2,Puerto Ayora,90,EC,1581014475,66,-0.74,-90.35,302.15,5.7
3,Zhezkazgan,90,KZ,1581014760,92,47.8,67.71,268.15,4.0
4,Barrow,1,US,1581014760,97,71.29,-156.79,238.15,3.1
5,Nortelandia,100,BR,1581014760,87,-14.45,-56.8,299.0,0.86
6,Bredasdorp,99,ZA,1581014761,68,-34.53,20.04,292.15,7.2
7,Hithadhoo,3,MV,1581014598,78,-0.6,73.08,301.58,5.35
8,Northallerton,2,GB,1581014761,89,54.34,-1.43,278.71,2.1
9,Meulaboh,100,ID,1581014761,78,4.14,96.13,300.83,3.47
10,Yellowknife,90,CA,1581014612,83,62.46,-114.35,253.71,1.5
11,Airai,99,TL,1581014470,83,-8.93,125.41,292.93,1.78
12,Bathsheba,20,BB,1581014762,62,13.22,-59.52,302.15,10.3
13,Poykovskiy,20,RU,1581014762,100,61.23,73.33,264.15,5.0
14,Pisco,75,PE,1581014523,30,-13.7,-76.22,298.71,4.6
15,Qaanaaq,0,GL,1581014762,44,77.48,-69.36,243.44,2.37
16,Alofi,100,NU,1581014762,100,-19.06,-169.92,298.15,2.6
17,Mataura,73,NZ,1581014763,81,-46.19,168.86,283.71,1.34
18,Fairbanks,90,US,1581014598,92,64.84,-147.72,265.37,1.5
19,San Jeronimo,92,PE,1581014763,66,-11.95,-75.28,285.16,2.95
20,Punta Arenas,58,CL,1581014497,50,-53.15,-70.92,290.15,4.6
21,Mar del Plata,40,AR,1581014518,78,-38.0,-57.56,300.15,7.7
22,Port Elizabeth,90,ZA,1581014561,88,-33.92,25.57,291.15,2.6
23,Ayan,100,RU,1581014764,77,56.45,138.17,245.28,3.43
24,Medea,6,DZ,1581014764,76,36.26,2.75,285.15,5.1
25,Katubao,88,PH,1581014765,88,5.89,124.83,295.61,1.22
26,Hilo,40,US,1581014520,73,19.73,-155.09,294.82,1.5
27,Rikitea,7,PF,1581014765,79,-23.12,-134.97,299.34,7.24
28,Mildura,40,AU,1581014527,77,-34.2,142.15,293.15,5.1
29,Diamantino,100,BR,1581014613,75,-14.41,-56.45,300.97,1.19
30,Jamestown,90,US,1581014661,100,42.1,-79.24,275.15,4.1
31,Cape Town,20,ZA,1581014294,72,-33.93,18.42,293.15,9.3
32,Namatanai,65,PG,1581014766,77,-3.67,152.43,301.36,4.1
33,Karaton,40,ID,1581014766,94,-6.34,106.1,299.26,1.5
34,Lovozero,37,RU,1581014766,83,68.0,35.01,259.45,5.11
35,Olga,78,RU,1581014767,58,43.74,135.29,265.76,3.47
36,Provideniya,0,RU,1581014767,82,64.38,-173.3,241.22,3.64
37,Weihe,94,CN,1581014767,83,33.0,105.32,274.22,1.02
38,Takoradze,80,GH,1581014767,60,4.88,-1.76,301.94,3.53
39,Orissaare,0,EE,1581014767,73,58.56,23.08,273.15,2.6
40,Arrondissement du Havre,0,FR,1581014768,75,49.58,0.33,278.15,3.6
41,Dumai,100,ID,1581014756,88,1.68,101.45,297.14,1.38
42,Port Lincoln,0,AU,1581014649,84,-34.73,135.87,291.0,5.79
43,Tasiilaq,75,GL,1581014768,64,65.61,-37.64,274.15,5.7
44,Pangody,58,RU,1581014768,98,65.85,74.49,257.17,4.16
45,Carthage,40,TN,1581014769,57,36.86,10.33,284.15,3.6
46,Lazarev,5,RU,1581014769,99,52.23,141.51,246.09,1.56
47,Saldanha,15,ZA,1581014517,64,-33.01,17.94,293.15,7.2
48,Aplahoue,25,BJ,1581014769,19,6.93,1.68,304.72,0.72
49,Ushuaia,87,AR,1581014566,51,-54.8,-68.3,288.15,0.85
50,Albany,90,US,1581014567,86,42.6,-73.97,275.15,3.6
51,Orlik,0,RU,1581014770,81,52.52,99.83,251.17,1.39
52,Hermanus,91,ZA,1581014521,87,-34.42,19.23,292.59,3.58
53,Csaszartoltes,94,HU,1581014770,68,46.42,19.18,274.82,1.34
54,Erbil,0,IQ,1581014765,70,36.19,44.01,281.15,3.1
55,Castro,49,BR,1581014770,88,-24.79,-50.01,297.44,2.17
56,Cabo San Lucas,5,MX,1581014504,55,22.89,-109.91,293.15,3.6
57,Hobart,90,AU,1581014721,72,-42.88,147.33,288.15,3.6
58,Waterfoot,0,GB,1581014771,75,53.69,-2.25,279.15,0.5
59,Viedma,93,AR,1581014771,64,-40.81,-63.0,293.8,9.73
60,Azul,55,AR,1581014745,58,-36.78,-59.86,303.71,2.6
61,Russell,90,US,1581014612,93,32.35,-85.2,291.15,3.6
62,Kalmar,90,SE,1581014772,93,56.66,16.36,277.15,1.5
63,Vaini,20,TO,1581014491,88,-21.2,-175.2,299.15,3.6
64,Bonavista,55,CA,1581014772,69,48.65,-53.11,268.71,5.36
65,Akdepe,36,TM,1581014772,65,42.06,59.38,281.15,5.1
66,Fortuna,90,US,1581014773,100,40.6,-124.16,285.37,5.1
67,Avarua,55,CK,1581014602,83,-21.21,-159.78,300.15,3.1
68,Vizovice,90,CZ,1581014773,86,49.22,17.85,276.48,3.6
69,Prieska,81,ZA,1581014773,52,-29.66,22.75,299.1,6.03
70,Yangi Marg`ilon,0,UZ,1581014672,55,40.43,71.72,277.15,3.1
71,Goksun,75,TR,1581014774,71,38.02,36.5,285.15,7.2
72,Tuatapere,1,NZ,1581014774,81,-46.13,167.68,283.71,1.34
73,Torbay,90,CA,1581014774,67,47.67,-52.73,270.93,11.3
74,Norman Wells,75,CA,1581014526,75,65.28,-126.83,246.15,1.5
75,Karpathos,33,GR,1581014774,81,35.51,27.21,284.15,7.7
76,Bethel,90,US,1581014774,98,41.37,-73.41,278.15,2.1
77,Ahipara,99,NZ,1581014775,100,-35.17,173.17,288.15,7.46
78,Atuona,27,PF,1581014775,73,-9.8,-139.03,301.19,10.91
79,Souillac,40,MU,1581014775,78,-20.52,57.52,299.26,3.6
80,Hong Kong,40,HK,1581014719,77,22.29,114.16,291.15,5.1
81,Bluff,81,NZ,1581014546,81,-46.6,168.33,283.71,1.34
82,Churapcha,37,RU,1581014776,98,62.0,132.43,230.74,1.15
83,Pechenga,40,RU,1581014776,67,69.53,31.17,267.15,11.8
84,Hobyo,100,SO,1581014776,69,5.35,48.53,297.39,7.28
85,Vallenar,0,CL,1581014776,42,-28.57,-70.76,298.3,4.96
86,East London,90,ZA,1581014532,100,-33.02,27.91,292.15,4.6
87,Chernyshevskiy,100,RU,1581014776,98,63.01,112.47,251.7,1.28
88,Phan Thiet,80,VN,1581014777,85,10.93,108.1,290.65,0.91
89,Bilibino,4,RU,1581014777,94,68.05,166.44,238.22,1.75
90,Busselton,97,AU,1581014777,62,-33.65,115.33,294.26,3.22
91,Saint George,1,US,1581014777,45,37.1,-113.58,282.04,3.6
92,La Rioja,13,ES,1581014777,61,42.25,-2.5,282.15,1.5
93,Clyde River,1,CA,1581014778,67,70.47,-68.59,243.15,6.2
94,San Matias,84,BO,1581014778,55,-16.37,-58.4,304.8,3.7
95,Butaritari,40,KI,1581014496,80,3.07,172.79,301.53,6.86
96,Kantang,29,TH,1581014778,93,7.41,99.52,295.07,1.26
97,Sarangani,100,PH,1581014778,80,5.4,125.46,300.57,4.43
98,Beringovskiy,98,RU,1581014779,96,63.05,179.32,241.86,8.41
99,Tanout,20,NE,1581014779,10,14.97,8.89,294.18,4.17
100,Erenhot,44,CN,1581014779,65,43.65,111.98,260.69,1.36
101,Kahului,75,US,1581014531,83,20.89,-156.47,295.15,1.5
102,Tuktoyaktuk,90,CA,1581014623,75,69.45,-133.04,247.15,3.6
103,Okha,89,RU,1581014780,98,53.57,142.95,246.72,6.11
104,Leningradskiy,99,RU,1581014780,97,69.38,178.42,241.15,6.57
105,Iqaluit,75,CA,1581014780,68,63.75,-68.51,244.26,7.2
106,Arraial do Cabo,75,BR,1581014780,88,-22.97,-42.03,301.15,4.6
107,Upernavik,97,GL,1581014781,95,72.79,-56.15,244.21,3.39
108,Port Alfred,100,ZA,1581014781,80,-33.59,26.89,293.71,3.13
109,Coquimbo,0,CL,1581014781,60,-29.95,-71.34,293.15,7.7
110,Havelock,90,US,1581014781,88,34.88,-76.9,298.71,9.3
111,Saint-Philippe,9,RE,1581014781,73,-21.36,55.77,299.15,2.6
112,Faanui,95,PF,1581014484,77,-16.48,-151.75,300.55,8.29
113,Cabadiangan,92,PH,1581014782,79,9.75,122.47,299.59,5.91
114,Notse,2,TG,1581014782,15,6.95,1.17,304.74,0.7
115,Coyhaique,90,CL,1581014782,87,-45.58,-72.07,286.15,2.1
116,Paita,40,PE,1581014782,100,-5.09,-81.11,290.15,7.2
117,El Alto,42,PE,1581014783,100,-4.27,-81.21,290.15,7.2
118,Kurumkan,76,RU,1581014783,87,54.3,110.3,251.6,1.0
119,Samarai,100,PG,1581014783,92,-10.62,150.67,297.47,2.38
120,Katsuura,20,JP,1581014783,47,35.13,140.3,274.15,4.6
121,Bayonet Point,75,US,1581014783,62,28.33,-82.68,303.15,10.3
122,Sao Joao da Barra,90,BR,1581014783,74,-21.64,-41.05,302.15,5.1
123,Tambun,40,ID,1581014784,94,-6.26,107.07,299.26,1.5
124,Kruisfontein,100,ZA,1581014784,92,-34.0,24.73,289.48,6.19
125,Kearney,1,US,1581014784,51,40.7,-99.08,276.48,2.6
126,Aklavik,90,CA,1581014784,68,68.22,-135.01,246.15,4.1
127,Sao Filipe,41,CV,1581014784,55,14.9,-24.5,297.1,8.19
128,Cherskiy,17,RU,1581014499,97,68.75,161.3,232.48,1.32
129,Vanavara,100,RU,1581014682,98,60.34,102.28,258.19,2.26
130,Dikson,100,RU,1581014519,94,73.51,80.55,263.58,5.02
131,Lebu,0,CL,1581014785,47,-37.62,-73.65,291.76,4.28
132,Anloga,20,GH,1581014785,74,5.79,0.9,303.15,3.6
133,Buckeye,24,US,1581014700,25,33.37,-112.58,285.93,3.1
134,Dingle,77,PH,1581014786,94,11.0,122.67,296.8,5.09
135,Hofn,95,IS,1581014786,88,64.25,-15.21,279.6,9.24
136,Port Said,0,EG,1581014694,63,31.26,32.28,289.15,5.1
137,Qasigiannguit,75,GL,1581014786,85,68.82,-51.19,263.15,2.6
138,Yenagoa,50,NG,1581014786,52,4.92,6.26,303.47,4.61
139,Saskylakh,38,RU,1581014787,92,71.92,114.08,242.53,8.05
140,Fort Nelson,75,CA,1581014787,92,58.81,-122.7,259.15,1.5
141,Dire Dawa,50,ET,1581014787,62,9.59,41.87,291.01,1.82
142,Sapa,64,PH,1581014787,82,5.15,120.32,300.72,3.23
143,Saint Anthony,1,US,1581014787,36,45.02,-93.22,272.15,2.6
144,Nishihara,75,JP,1581014787,63,26.18,127.76,292.15,4.6
145,Olafsvik,66,IS,1581014788,78,64.89,-23.71,277.5,9.64
146,Mahebourg,40,MU,1581014788,78,-20.41,57.7,299.26,3.6
147,Carnarvon,0,AU,1581014788,94,-24.87,113.63,297.15,7.7
148,Sydney,75,AU,1581014767,94,-33.87,151.21,293.15,4.6
149,Ponta do Sol,20,PT,1581014788,77,32.67,-17.1,292.59,1.5
150,Urubicha,33,BO,1581014788,86,-15.38,-62.95,301.46,2.39
151,Saint-Joseph,0,RE,1581014789,73,-21.37,55.62,299.15,2.6
152,New Norfolk,90,AU,1581014789,72,-42.78,147.06,288.15,3.6
153,Bilma,19,NE,1581014789,14,18.69,12.92,292.94,2.9
154,Bay Roberts,90,CA,1581014789,67,47.6,-53.26,270.93,11.3
155,San Patricio,75,MX,1581014605,65,19.22,-104.7,299.15,5.1
156,College,90,US,1581014675,92,64.86,-147.8,266.15,1.5
157,Geraldton,40,AU,1581014790,78,-28.77,114.6,295.15,5.1
158,Keti Bandar,0,PK,1581014790,60,24.14,67.45,293.54,5.4
159,Katherine,90,AU,1581014790,88,-14.47,132.27,300.15,1.0
160,Murdochville,100,CA,1581014790,57,48.96,-65.5,264.87,3.61
161,George Town,20,MY,1581014706,83,5.41,100.34,300.15,1.55
162,Yulara,0,AU,1581014792,24,-25.24,130.99,299.15,3.6
163,Naron,31,ES,1581014792,62,43.52,-8.15,289.26,1.5
164,Cabedelo,20,BR,1581014792,58,-6.98,-34.83,304.15,5.1
165,Hailar,90,CN,1581014793,99,49.2,119.7,246.4,3.93
166,Havre-Saint-Pierre,90,CA,1581014793,78,50.23,-63.6,263.15,1.5
167,Pevek,64,RU,1581014793,99,69.7,170.31,236.98,1.61
168,Codrington,48,AU,1581014793,94,-38.27,141.97,290.74,8.03
169,Macapa,40,BR,1581014794,55,0.04,-51.07,306.15,5.1
170,Kodiak,1,US,1581014794,79,57.79,-152.41,269.15,2.6
171,Koumra,20,TD,1581014794,15,8.91,17.55,301.18,1.6
172,Mayumba,24,GA,1581014794,76,-3.43,10.66,301.6,4.39
173,Champerico,0,GT,1581014794,41,14.3,-91.92,306.15,4.1
174,Kichera,76,RU,1581014550,91,55.94,110.1,254.08,0.79
175,Chokurdakh,7,RU,1581014795,100,70.63,147.92,236.86,0.57
176,Aitape,94,PG,1581014795,85,-3.14,142.35,300.13,4.92
177,Mount Gambier,90,AU,1581014500,100,-37.83,140.77,289.15,2.6
178,Asosa,2,ET,1581014795,23,10.07,34.53,296.87,2.64
179,De Aar,55,ZA,1581014795,53,-30.65,24.01,297.07,4.79
180,Nome,1,US,1581014648,61,64.5,-165.41,244.82,2.44
181,Narrabri,90,AU,1581014796,88,-30.32,149.78,293.71,5.7
182,Shingu,86,JP,1581014796,55,33.73,135.98,276.69,2.72
183,Plettenberg Bay,100,ZA,1581014796,89,-34.05,23.37,290.77,4.28
184,Saint-Pierre,0,RE,1581014549,73,-21.34,55.48,299.15,2.6
185,Mogocha,47,RU,1581014797,96,53.73,119.77,244.75,0.69
186,Baruun-Urt,0,MN,1581014797,88,46.68,113.28,253.97,3.56
187,Strezhevoy,99,RU,1581014797,85,60.73,77.59,267.15,4.0
188,Belem,75,BR,1581014797,88,-1.46,-48.5,299.15,3.6
189,Waddan,61,LY,1581014797,35,29.16,16.14,285.02,3.73
190,Springbok,0,ZA,1581014797,48,-29.66,17.89,294.9,4.37
191,Ubinskoye,95,RU,1581014798,89,55.31,79.68,265.87,8.41
192,Thinadhoo,12,MV,1581014798,78,0.53,72.93,301.64,5.01
193,Kloulklubed,90,PW,1581014798,94,7.04,134.26,298.15,5.1
194,Sisimiut,93,GL,1581014798,95,66.94,-53.67,254.98,2.77
195,Kapaa,90,US,1581014798,93,22.08,-159.32,293.15,6.2
196,Glossa,75,GR,1581014799,93,35.47,23.78,282.59,6.2
197,Puerto Carreno,20,CO,1581014799,44,6.19,-67.49,309.15,6.2
198,Tura,0,IN,1581014799,47,25.52,90.22,286.74,1.12
199,Sao Miguel do Araguaia,75,BR,1581014799,77,-13.28,-50.16,300.54,1.78
200,Greeneville,75,US,1581014799,93,36.16,-82.83,289.15,3.1
201,Nanortalik,100,GL,1581014799,89,60.14,-45.24,271.38,11.01
202,Thompson,5,CA,1581014585,68,55.74,-97.86,245.15,1.5
203,Cockburn Town,17,TC,1581014576,78,21.46,-71.14,299.37,10.67
204,Solnechnyy,100,RU,1581014726,99,50.72,136.63,249.95,0.23
205,Roald,75,NO,1581014800,81,62.58,6.13,282.04,5.7
206,Ayagoz,100,KZ,1581014800,97,47.97,80.44,271.64,4.38
207,Tarakan,86,ID,1581014800,78,3.3,117.63,299.34,2.88
208,Lorengau,100,PG,1581014801,76,-2.02,147.27,302.09,5.47
209,Kyaikkami,17,MM,1581014801,65,16.08,97.57,298.18,2.02
210,Verkhoyansk,8,RU,1581014801,99,67.54,133.38,232.84,0.64
211,Great Yarmouth,0,GB,1581014801,86,52.61,1.73,278.15,1.22
212,Portland,90,US,1581014551,76,45.52,-122.68,285.37,2.1
213,Emba,100,KZ,1581014802,95,48.83,58.14,272.63,4.4
214,Vao,74,NC,1581014802,79,-22.67,167.48,299.54,9.63
215,Shimoda,100,JP,1581014802,55,34.67,138.95,274.82,0.89
216,Gigmoto,92,PH,1581014802,84,13.78,124.39,299.88,9.25
217,Constitucion,0,CL,1581014526,55,-35.33,-72.42,290.8,5.91
218,Bariloche,75,AR,1581014803,30,-41.15,-71.31,293.15,3.6
219,Raymondville,1,US,1581014803,30,26.48,-97.78,288.71,5.7
220,Buchanan,40,LR,1581014803,74,5.88,-10.05,303.15,3.96
221,Acapulco de Juarez,40,MX,1581014803,69,16.86,-99.89,301.15,3.1
222,Sao Felix do Xingu,77,BR,1581014803,91,-6.64,-51.99,300.45,1.14
223,Lavrentiya,0,RU,1581014804,94,65.58,-171.0,240.36,3.39
224,Anadyr,0,RU,1581014804,73,64.75,177.48,235.37,2.0
225,Nikolskoye,51,RU,1581014804,67,59.7,30.79,268.15,7.0
226,Naze,90,JP,1581014804,67,28.37,129.48,289.15,2.1
227,Kununurra,30,AU,1581014805,88,-15.77,128.73,299.15,1.5
228,Etchojoa,5,MX,1581014805,16,26.92,-109.63,291.48,2.1
229,Mil'kovo,30,RU,1581014805,95,54.72,158.62,243.28,0.98
230,Mehamn,75,NO,1581014805,58,71.04,27.85,270.15,10.8
231,Gravdal,75,NO,1581014805,79,68.12,13.5,272.15,1.5
232,Narsaq,75,GL,1581014521,58,60.92,-46.05,271.15,3.1
233,Klaksvik,100,FO,1581014806,100,62.23,-6.59,280.15,6.2
234,Kolokani,0,ML,1581014806,7,13.57,-8.03,303.33,3.23
235,Emerald,0,AU,1581014806,100,-23.53,148.17,297.15,3.6
236,Waingapu,96,ID,1581014806,76,-9.66,120.26,302.2,5.39
237,Najran,29,SA,1581014524,35,17.49,44.13,294.15,3.1
238,Meadow Lake,1,US,1581014807,55,34.8,-106.54,278.71,14.4
239,Hamilton,90,US,1581014723,80,39.18,-84.53,274.82,1.5
240,Kysyl-Syr,4,RU,1581014807,99,63.9,122.76,234.51,0.98
241,Moussoro,16,TD,1581014807,12,13.64,16.49,298.1,4.49
242,Yerbogachen,100,RU,1581014808,96,61.28,108.01,260.1,2.21
243,Aurad,92,IN,1581014808,34,18.25,77.43,299.16,5.02
244,East Bethel,0,US,1581014808,46,45.32,-93.2,272.15,3.1
245,Mackay,17,AU,1581014808,94,-21.15,149.2,298.15,2.1
246,Cidreira,0,BR,1581014808,85,-30.18,-50.21,298.55,8.91
247,Saint-Avertin,0,FR,1581014809,59,47.36,0.74,279.26,3.6
248,Khatanga,80,RU,1581014809,89,71.97,102.5,247.81,3.92
249,Mut,12,TR,1581014809,79,36.64,33.44,281.72,3.47
250,Christchurch,89,NZ,1581014675,93,-43.53,172.63,285.93,2.1
251,Quryq,48,KZ,1581014809,78,43.2,51.65,282.42,4.01
252,Goderich,98,CA,1581014810,84,43.75,-81.72,272.04,1.79
253,Agdangan,100,PH,1581014810,93,13.87,121.92,297.59,1.34
254,Contamana,98,PE,1581014810,69,-7.33,-75.02,304.17,1.26
255,Tiksi,0,RU,1581014595,90,71.69,128.87,239.11,1.66
256,Baykit,93,RU,1581014810,97,61.67,96.37,257.7,1.04
257,Daru,78,PG,1581014811,93,-9.08,143.21,297.33,1.33
258,Luderitz,0,NA,1581014811,82,-26.65,15.16,290.78,13.86
259,Lishui,100,CN,1581014811,97,28.46,119.91,278.31,1.35
260,Ancud,40,CL,1581014808,36,-41.87,-73.82,291.15,4.1
261,Inta,100,RU,1581014812,98,66.03,60.17,250.24,4.48
262,Aneho,20,TG,1581014812,74,6.23,1.6,303.15,3.6
263,Shubarshi,100,KZ,1581014812,86,48.59,57.19,273.97,4.44
264,Mandera,33,KE,1581014812,22,3.94,41.87,305.01,3.65
265,Sahuaripa,0,MX,1581014812,19,29.05,-109.23,285.54,0.22
266,Zhangye,0,CN,1581014813,36,38.93,100.45,269.19,0.96
267,Opopeo,75,MX,1581014813,52,19.4,-101.6,291.48,3.1
268,Ntungamo,86,UG,1581014813,89,-0.88,29.65,291.44,1.38
269,Ambulu,100,ID,1581014813,75,-8.35,113.61,301.89,3.52
270,Key West,20,US,1581014706,78,24.56,-81.78,302.15,7.2
271,Abeche,0,TD,1581014814,15,13.83,20.83,298.25,3.88
272,Lagoa,91,PT,1581014814,78,39.05,-27.98,289.73,14.42
273,La Seyne-sur-Mer,100,FR,1581014814,66,43.1,5.88,285.93,1.0
274,Straseni,90,MD,1581014556,74,47.14,28.61,274.15,3.6
275,Disna,15,BY,1581014814,52,55.57,28.2,269.0,4.73
276,Ilulissat,75,GL,1581014814,85,69.22,-51.1,263.15,2.6
277,Tiznit,0,MA,1581014815,28,29.58,-9.5,293.05,2.42
278,Tilichiki,97,RU,1581014815,91,60.47,166.1,242.82,4.65
279,Oranjestad,40,AW,1581014709,62,12.52,-70.03,303.15,10.8
280,Koumac,100,NC,1581014815,85,-20.57,164.28,297.01,2.03
281,Adrar,0,MR,1581014815,7,20.5,-10.07,298.82,2.28
282,Clarence Town,75,AU,1581014815,94,-32.58,151.78,293.15,2.6
283,Kumul,43,CN,1581014545,76,42.8,93.45,262.15,1.08
284,Flin Flon,5,CA,1581014724,69,54.77,-101.86,248.15,2.1
285,Rawson,92,AR,1581014816,72,-43.3,-65.1,289.75,4.96
286,Kudat,75,MY,1581014816,94,6.88,116.85,297.15,0.5
287,Nanlong,37,CN,1581014816,82,31.35,106.06,280.41,1.95
288,Road Town,40,VG,1581014641,62,18.42,-64.62,303.15,5.7
289,Lompoc,1,US,1581014817,58,34.64,-120.46,289.82,1.71
290,Teya,21,RU,1581014817,94,60.38,92.63,261.66,2.73
291,Vestmanna,100,FO,1581014817,100,62.16,-7.17,280.15,6.2
292,Opuwo,99,NA,1581014817,53,-18.06,13.84,298.25,4.87
293,Hualmay,77,PE,1581014817,56,-11.1,-77.61,299.64,4.58
294,Batemans Bay,95,AU,1581014818,94,-35.72,150.18,292.59,0.66
295,Sokoto,10,NG,1581014818,11,13.06,5.24,297.09,2.92
296,Nargana,87,PA,1581014818,76,9.44,-78.59,299.82,4.78
297,Pawai,25,IN,1581014818,53,24.27,80.17,288.35,4.45
298,Elko,75,US,1581014818,60,41.0,-115.5,279.15,5.7
299,Krasnyy Chikoy,57,RU,1581014818,99,50.36,108.75,252.4,0.92
300,Broome,90,US,1581014819,96,42.25,-75.83,275.37,2.6
301,Faya,9,SA,1581014819,93,18.39,42.45,289.15,2.21
302,Garoowe,37,SO,1581014711,39,8.41,48.48,297.32,7.73
303,Oranjemund,1,NA,1581014819,81,-28.55,16.43,290.48,7.71
304,Jiblah,74,YE,1581014820,75,13.92,44.15,291.47,0.5
305,Spokoynaya,99,RU,1581014820,7,44.25,41.4,281.48,2.68
306,Sirte,0,LY,1581014610,58,31.21,16.59,285.51,6.69
307,Harper,29,LR,1581014820,69,4.38,-7.72,301.33,2.28
308,Krasnokamensk,93,RU,1581014820,89,50.1,118.04,249.72,1.64
309,Comarapa,93,BO,1581014821,47,-17.9,-64.48,300.16,3.4
310,Lircay,75,PE,1581014821,46,-12.99,-74.72,294.15,1.5
311,Charters Towers,7,AU,1581014821,90,-20.1,146.27,296.68,2.79
312,Camapua,5,BR,1581014821,68,-19.53,-54.04,302.47,3.16
313,Les Cayes,14,HT,1581014821,73,18.2,-73.75,300.37,10.85
314,Theodoriana,40,GR,1581014821,55,39.44,21.21,281.15,2.6
315,Quelimane,80,MZ,1581014822,81,-17.88,36.89,300.67,4.62
316,Richards Bay,89,ZA,1581014822,83,-28.78,32.04,299.72,10.13
317,Kiryat Gat,0,IL,1581014822,72,31.61,34.76,290.37,1.5
318,Vestmannaeyjar,100,IS,1581014822,78,63.44,-20.27,280.15,9.55
319,Madinat Sittah Uktubar,0,EG,1581014822,33,29.82,31.05,290.15,4.6
320,Aswan,0,EG,1581014823,22,24.09,32.91,293.15,5.7
321,Grand Gaube,40,MU,1581014823,78,-20.01,57.66,299.26,3.6
322,Katobu,82,ID,1581014823,93,-4.94,122.53,297.76,2.54
323,Isangel,98,VU,1581014615,83,-19.55,169.27,299.51,9.58
324,Ekenaes,0,FI,1581014823,74,59.97,23.43,269.26,0.89
325,Kawalu,100,ID,1581014824,94,-7.38,108.21,295.96,0.81
326,The Valley,40,AI,1581014566,69,18.22,-63.06,301.48,6.7
327,Kirakira,100,SB,1581014824,86,-10.45,161.92,299.65,6.76
328,Gamba,32,GA,1581014825,78,-2.65,10.0,300.49,3.31
329,Bambous Virieux,40,MU,1581014825,78,-20.34,57.76,299.26,3.6
330,Lodja,99,CD,1581014825,75,-3.48,23.43,297.63,1.12
331,Melilla,20,ES,1581014558,72,35.29,-2.94,288.15,2.1
332,Agirish,25,RU,1581014825,90,61.92,63.02,254.28,3.52
333,Eirunepe,92,BR,1581014826,56,-6.66,-69.87,305.23,2.36
334,Rorvik,75,NO,1581014826,95,64.86,11.24,273.15,4.6
335,La Ronge,40,CA,1581014826,63,55.1,-105.28,252.15,2.6
336,Khovd,3,MN,1581014815,84,48.01,91.64,256.02,0.43
337,Grass Valley,1,US,1581014821,53,39.22,-121.06,286.48,1.65
338,Yumen,24,CN,1581014827,45,40.28,97.2,268.03,5.51
339,Vila Franca do Campo,20,PT,1581014827,63,37.72,-25.43,289.15,5.1
340,Ust-Tsilma,98,RU,1581014827,97,65.44,52.15,254.83,0.75
341,Eyl,40,SO,1581014827,75,7.98,49.82,297.92,10.65
342,Alamogordo,1,US,1581014731,35,32.9,-105.96,278.71,4.1
343,Oschatz,75,DE,1581014629,80,51.3,13.12,278.15,3.1
344,Saint-Augustin,31,CA,1581014584,78,51.23,-58.65,263.79,9.04
345,Tateyama,20,JP,1581014828,47,34.98,139.87,274.15,4.6
346,Nyurba,44,RU,1581014828,96,63.28,118.33,240.25,1.46
347,Tabou,29,CI,1581014828,69,4.42,-7.35,301.33,2.28
348,Longyearbyen,40,SJ,1581014829,83,78.22,15.64,253.15,1.5
349,Jizan,13,SA,1581014829,78,17.33,42.67,300.15,2.69
350,Praia,64,CV,1581014830,39,14.92,-23.51,300.15,9.3
351,Orimattila,75,FI,1581014830,73,60.8,25.73,268.71,5.7
352,Port Hawkesbury,90,CA,1581014830,85,45.62,-61.35,267.59,1.5
353,Kurud,80,IN,1581014830,67,20.83,81.72,291.36,2.26
354,Pampa,1,US,1581014830,22,35.54,-100.96,280.15,3.6
355,Padang,100,ID,1581014831,95,-0.95,100.35,293.34,2.27
356,Trunovskoye,40,RU,1581014831,70,45.49,42.14,282.15,4.0
357,Coahuayana Viejo,40,MX,1581014581,68,18.73,-103.68,295.15,1.88
358,Zeerust,20,ZA,1581014831,42,-25.54,26.08,300.15,1.5
359,Sampit,62,ID,1581014831,97,-2.53,112.95,296.89,1.03
360,Chui,13,UY,1581014832,60,-33.7,-53.46,303.66,3.17
361,Rania,0,IN,1581014832,41,29.53,74.83,285.51,1.11
362,San Cristobal,20,VE,1581014591,31,7.77,-72.22,306.15,11.3
363,Humaita,52,BR,1581014832,82,-7.51,-63.02,302.16,1.63
364,Maceio,75,BR,1581014701,66,-9.67,-35.74,303.15,7.2
365,Barcelona,20,ES,1581014513,76,41.39,2.16,285.93,3.6
366,Verkh-Usugli,61,RU,1581014833,91,52.7,115.17,251.26,1.0
367,Port Hardy,90,CA,1581014833,93,50.7,-127.42,278.15,1.0
368,Pargas,0,FI,1581014833,79,60.3,22.3,269.26,2.1
369,Sosnovo-Ozerskoye,64,RU,1581014834,99,52.52,111.54,250.89,2.44
370,Laguna,1,US,1581014834,62,38.42,-121.42,287.04,1.19
371,Romanovo,94,RU,1581014834,85,52.62,81.23,266.75,5.76
372,Pangnirtung,90,CA,1581014834,75,66.15,-65.71,247.15,1.5
373,Mackenzie,90,CA,1581014834,92,55.3,-123.17,267.15,3.1
374,Mount Isa,40,AU,1581014590,94,-20.73,139.5,299.15,0.6
375,Asau,90,RO,1581014835,59,46.43,26.4,274.26,2.1
376,Bowen,0,AU,1581014835,94,-20.02,148.23,297.59,0.5
377,Avera,90,US,1581014835,100,33.19,-82.53,297.15,3.6
378,Zatoka,100,UA,1581014835,74,46.07,30.47,271.15,5.0
379,Northam,20,GB,1581014836,81,51.03,-4.22,279.26,2.1
380,Lantawan,90,PH,1581014836,88,10.62,123.98,299.15,0.5
381,Caravelas,100,BR,1581014836,70,-17.71,-39.25,300.29,3.31
382,Caceres,36,ES,1581014837,80,39.52,-6.37,284.26,0.45
383,Hambantota,55,LK,1581014837,81,6.12,81.12,299.25,6.82
384,Dunedin,0,NZ,1581014837,75,-45.87,170.5,283.37,4.33
385,Jasper,90,US,1581014837,79,37.2,-94.35,274.82,2.6
386,Araceli,87,PH,1581014837,85,10.55,119.99,300.11,10.07
387,Pozo Colorado,23,PY,1581014838,33,-23.49,-58.8,310.98,2.86
388,Gazli,6,UZ,1581014838,67,40.13,63.45,281.34,6.36
389,Barra do Garcas,75,BR,1581014600,83,-15.89,-52.26,299.15,1.0
390,Monrovia,40,LR,1581014651,74,6.3,-10.8,303.15,4.9
391,Mattru,48,SL,1581014838,59,7.62,-11.83,302.55,3.72
392,Abbeville,0,FR,1581014839,93,50.1,1.83,277.15,1.5
393,Atambua,100,ID,1581014839,72,-9.11,124.89,298.25,0.51
394,Kralendijk,20,BQ,1581014839,66,12.15,-68.27,302.15,11.8
395,Kodinsk,64,RU,1581014839,96,58.69,99.18,260.07,1.83
396,Moses Lake,90,US,1581014839,80,47.13,-119.28,276.48,2.1
397,Camana,3,PE,1581014811,59,-16.62,-72.71,297.01,5.61
398,Cessnock,75,AU,1581014840,94,-32.83,151.35,293.15,2.6
399,Sambava,98,MG,1581014840,96,-14.27,50.17,295.54,0.88
400,Ribeira Grande,75,PT,1581014840,82,38.52,-28.7,290.15,10.8
401,Ipira,100,BR,1581014840,61,-12.16,-39.74,302.6,1.9
402,Ubari,0,LY,1581014841,25,26.59,12.78,285.22,3.77
403,Aberdeen,20,GB,1581014841,85,57.14,-2.1,277.04,0.5
404,Cayenne,40,GF,1581014841,58,4.93,-52.33,303.15,6.7
405,Chivilcoy,60,AR,1581014841,59,-34.9,-60.02,305.93,0.45
406,Bossier City,90,US,1581014841,93,32.52,-93.73,276.48,3.6
407,Batagay-Alyta,0,RU,1581014841,84,67.8,130.41,240.49,1.75
408,Ruhengeri,100,RW,1581014842,94,-1.5,29.64,285.17,1.09
409,Turje,43,HU,1581014842,69,46.98,17.11,275.15,2.1
410,Tabuleiro do Norte,87,BR,1581014842,42,-5.25,-38.13,305.71,2.13
411,Barsovo,20,RU,1581014842,100,61.17,73.17,264.15,5.0
412,Los Llanos de Aridane,20,ES,1581014842,72,28.66,-17.92,293.15,2.1
413,Novoagansk,63,RU,1581014843,95,61.94,76.66,260.08,4.4
414,Emirdag,99,TR,1581014843,93,39.02,31.15,272.71,3.13
415,Ostrovnoy,87,RU,1581014843,88,68.05,39.51,262.81,2.99
416,Mareeba,46,AU,1581014843,88,-17.0,145.43,298.15,0.5
417,Evensk,79,RU,1581014843,71,61.95,159.23,249.53,6.69
418,Kotra,0,IN,1581014844,60,25.82,79.32,286.79,3.05
419,Rabo de Peixe,20,PT,1581014844,63,37.8,-25.58,289.15,5.1
420,Maumere,100,ID,1581014844,82,-8.62,122.21,298.97,3.06
421,Mersa Matruh,0,EG,1581014844,37,31.35,27.25,286.15,3.6
422,Yeniseysk,87,RU,1581014844,93,58.45,92.17,264.53,3.65
423,Pauini,57,BR,1581014545,44,-7.71,-66.98,307.36,2.3
424,Ondangwa,72,NA,1581014845,40,-17.92,15.95,302.96,0.73
425,Lusambo,99,CD,1581014845,71,-4.97,23.45,298.86,1.03
426,Chamba,82,IN,1581014577,84,32.57,76.13,278.02,1.78
427,Kirillov,40,RU,1581014846,67,59.86,38.38,265.15,4.0
428,Quesnel,90,CA,1581014844,100,53.0,-122.5,269.15,1.62
429,Sao Gabriel da Cachoeira,20,BR,1581014846,52,-0.13,-67.09,307.15,3.1
430,Berlevag,75,NO,1581014847,53,70.86,29.09,270.15,10.8
431,Upington,20,ZA,1581014827,31,-28.45,21.26,305.15,3.6
432,Suez,0,EG,1581014677,41,29.97,32.53,290.9,4.92
433,Huarmey,84,PE,1581014847,48,-10.07,-78.15,301.45,4.8
434,Tokur,100,RU,1581014848,97,53.13,132.9,245.25,0.29
435,Valleyview,38,CA,1581014848,77,55.07,-117.29,271.24,4.83
436,Djibouti,49,DJ,1581014848,64,11.5,42.5,297.15,5.5
437,Husavik,40,IS,1581014848,65,66.04,-17.34,278.15,19.5
438,Raudeberg,75,NO,1581014848,100,61.99,5.14,281.48,3.1
439,Varhaug,75,NO,1581014848,100,58.61,5.65,279.26,3.1
440,Staraya Toropa,14,RU,1581014849,62,56.28,31.67,266.58,4.06
441,Biak,7,ID,1581014849,75,-0.91,122.88,301.17,3.59
442,Salinopolis,89,BR,1581014849,80,-0.61,-47.36,300.06,6.95
443,Ust'-Kan,99,RU,1581014849,89,50.93,84.76,263.34,2.88
444,Hasaki,20,JP,1581014835,58,35.73,140.83,269.15,2.6
445,Bandar-e Lengeh,0,IR,1581014850,88,26.56,54.88,291.15,2.1
446,Kavaratti,46,IN,1581014699,76,10.57,72.64,299.99,6.02
447,Fort William,100,GB,1581014850,91,56.82,-5.11,279.82,0.45
448,Mmabatho,20,ZA,1581014850,42,-25.85,25.63,300.15,1.5
449,Guantanamo,20,CU,1581014700,62,20.14,-75.21,303.15,6.2
450,Tutin,0,RS,1581014850,80,42.99,20.33,265.76,2.82
451,Buala,100,SB,1581014851,83,-8.14,159.59,299.97,6.71
452,Jalu,0,LY,1581014851,46,29.03,21.55,286.65,6.22
453,Kananga,89,CD,1581014851,84,-5.9,22.42,296.0,1.02
454,Pringsewu,100,ID,1581014851,87,-5.36,104.97,295.45,0.51
455,Valdez,65,EC,1581014851,65,1.25,-78.98,303.78,2.75
456,Severo-Kuril'sk,100,RU,1581014852,76,50.68,156.12,261.63,6.15
457,Wrzesnia,90,PL,1581014852,100,52.33,17.57,278.15,5.1
458,Pare,100,ID,1581014852,94,-7.77,112.2,297.71,1.61
459,Shirokiy,95,RU,1581014852,99,49.76,129.52,250.48,2.56
460,Impfondo,78,CG,1581014852,44,1.64,18.07,302.06,0.11
461,Amapa,62,BR,1581014853,55,1.0,-52.0,303.32,2.26
462,Mugur-Aksy,71,RU,1581014853,71,50.35,90.5,259.09,2.58
463,Nantucket,90,US,1581014853,100,41.28,-70.1,282.59,2.1
464,Cap Malheureux,40,MU,1581014853,78,-19.98,57.61,299.26,3.6
465,Kavieng,100,PG,1581014805,76,-2.57,150.8,301.7,3.62
466,San Policarpo,100,PH,1581014854,88,12.18,125.51,299.88,6.94
467,Esperance,29,AU,1581014854,72,-33.87,121.9,291.15,6.7
468,Dzhankoy,100,UA,1581014854,95,45.72,34.4,273.61,7.54
469,Collie,80,AU,1581014854,62,-33.37,116.15,294.26,1.18
470,Katangli,64,RU,1581014854,97,51.71,143.23,248.96,2.11
471,Rio Grande,20,BR,1581014690,49,-32.03,-52.1,307.15,4.1
472,Wanning,0,CN,1581014557,94,18.8,110.4,292.76,1.07
473,Bandarbeyla,100,SO,1581014855,75,9.49,50.81,297.75,7.68
474,Svetlaya,100,RU,1581014855,62,46.54,138.33,259.27,3.27
475,Praia da Vitoria,40,PT,1581014855,72,38.73,-27.07,289.15,11.93
476,Bengkulu,100,ID,1581014855,91,-3.8,102.27,296.89,1.6
477,Lethem,37,GY,1581014856,26,3.38,-59.8,309.25,7.63
478,Campbell River,90,CA,1581014580,100,50.02,-125.24,276.15,1.0
479,Tala,0,EG,1581014856,46,30.68,30.94,285.15,2.49
480,Paso de Patria,75,AR,1581014856,59,-27.25,-58.55,306.48,2.6
481,Chumikan,99,RU,1581014856,90,54.72,135.31,246.75,1.69
482,Vagur,100,FO,1581014857,92,61.47,-6.81,281.46,11.26
483,Duncan,1,US,1581014857,79,34.5,-97.96,275.37,2.6
484,Severnyy-Kospashskiy,99,RU,1581014857,70,59.09,57.8,257.04,0.89
485,Manadhoo,100,MV,1581014857,80,5.77,73.38,300.73,5.75
486,Amazar,38,RU,1581014857,86,53.86,120.88,244.79,1.78
487,Kaitangata,21,NZ,1581014858,85,-46.28,169.85,282.59,2.24
488,Kendari,62,ID,1581014858,92,-3.94,122.5,297.81,0.37
489,Jeremie,2,HT,1581014858,63,18.65,-74.12,298.88,4.61
490,Kiunga,65,PG,1581014858,99,-6.12,141.29,296.34,0.85
491,Kidal,17,ML,1581014859,12,18.44,1.41,295.35,1.54
492,Bosaso,66,SO,1581014859,74,11.28,49.18,297.74,7.61
493,Sitka,90,US,1581014859,75,57.05,-135.33,275.15,3.1
494,Trincomalee,55,LK,1581014859,95,8.57,81.23,294.51,0.99
495,Deputatsky,6,RU,1581014859,100,69.3,139.9,238.81,0.56
496,Petropavlovsk-Kamchatsky,100,RU,1581014859,44,53.05,158.65,255.15,3.0
497,Portree,100,GB,1581014860,89,57.41,-6.19,280.37,3.58
498,Doha,0,QA,1581014774,46,25.29,51.53,294.26,1.0
499,Ocampo,35,MX,1581014860,25,21.65,-101.5,287.81,9.02
500,Larreynaga,40,NI,1581014860,41,12.68,-86.57,306.15,2.1
501,Olinda,40,BR,1581014860,62,-8.01,-34.86,304.15,5.1
502,Margate,0,GB,1581014861,100,51.38,1.39,278.71,2.1
503,Amoy,90,CN,1581014861,82,24.48,118.08,287.15,3.0
504,Willmar,40,US,1581014861,79,45.12,-95.04,271.15,2.6
505,Luangwa,89,ZM,1581014861,89,-15.62,30.42,297.08,1.45
506,Unai,97,BR,1581014862,74,-16.36,-46.91,298.07,3.0
507,Zanjan,0,IR,1581014862,74,36.67,48.48,268.24,2.79
508,Freeport,90,US,1581014569,87,40.66,-73.58,279.82,3.1
509,Bundaberg,40,AU,1581014774,100,-24.85,152.35,296.48,2.6
510,Shihezi,99,CN,1581014862,86,44.3,86.03,262.84,1.11
511,Soyo,20,AO,1581014862,70,-6.13,12.37,303.15,3.1
512,Seoul,90,KR,1581014740,67,37.57,126.98,268.15,0.5
513,Wajima,100,JP,1581014863,64,37.4,136.9,274.11,4.13
514,Banda Aceh,64,ID,1581014863,94,5.56,95.32,295.55,2.24
515,Zhigansk,5,RU,1581014863,95,66.77,123.37,234.98,2.58
516,Zambezi,100,ZM,1581014863,90,-13.54,23.1,294.21,3.08
517,Beyneu,99,KZ,1581014864,64,45.32,55.2,280.9,6.8
518,Sioux Lookout,75,CA,1581014864,65,50.1,-91.92,258.15,1.5
519,Taoudenni,0,ML,1581014864,13,22.68,-3.98,300.55,5.06
520,Tahta,0,EG,1581014864,24,26.77,31.5,292.15,4.1
521,Barra de Tecoanapa,0,MX,1581014864,43,16.52,-98.75,306.13,2.96
522,Moerai,53,PF,1581014865,78,-22.43,-151.33,299.93,6.09
523,Davila,75,PH,1581014865,88,18.47,120.58,296.15,1.0
524,Pedernales,40,DO,1581014865,70,18.04,-71.74,303.15,5.1
525,Brae,75,GB,1581014865,87,60.4,-1.35,281.15,5.7
526,Talnakh,40,RU,1581014865,92,69.49,88.4,267.15,16.0
527,Ust'-Omchug,100,RU,1581014865,98,61.15,149.63,237.66,2.85
528,Patnos,0,TR,1581014866,85,39.23,42.86,267.75,2.39
529,Dwarka,50,IN,1581014866,60,22.24,68.97,294.91,8.93
530,Taos,75,US,1581014866,62,36.41,-105.57,266.48,9.3
531,Zeya,40,RU,1581014866,99,53.75,127.27,242.05,1.16
532,Marabu,75,MY,1581014866,100,4.41,114.01,295.15,1.0
533,Beidao,21,CN,1581014867,84,34.57,105.89,272.24,1.44
534,Alta Floresta,40,BR,1581014735,59,-9.88,-56.09,305.15,1.5
535,Awjilah,0,LY,1581014867,46,29.11,21.29,286.65,6.22
536,Dalvik,40,IS,1581014867,65,65.97,-18.53,278.15,19.5
537,Vangaindrano,88,MG,1581014867,89,-23.35,47.6,296.42,1.1
538,Lithakia,20,GR,1581014864,80,37.72,20.83,283.15,2.6
539,Waipawa,85,NZ,1581014759,77,-41.41,175.52,288.15,8.2
540,Turan,40,VN,1581014692,94,16.07,108.22,294.15,0.5
541,Mitsamiouli,20,KM,1581014868,88,-11.38,43.28,299.15,3.1
542,Port Keats,93,AU,1581014868,78,-14.25,129.55,301.26,4.87
543,Cayambe,20,EC,1581014868,20,0.05,-78.13,298.15,2.6
544,Bayir,75,TR,1581014869,93,37.27,28.22,281.15,2.6
545,Pochutla,40,MX,1581014869,62,15.74,-96.47,303.15,7.7
546,Kimbe,82,PG,1581014869,95,-5.55,150.14,296.74,1.25
